[
    {
      "price": "$$",
      "location": {
        "zip_code": "V3A 4G2",
        "address3": "",
        "city": "Langley",
        "address1": "20526 Fraser Highway",
        "country": "CA",
        "state": "BC",
        "address2": ""
      },
      "image_url": "https://s3-media4.fl.yelpcdn.com/bphoto/ZWCwWJZmeEEJ8CTJQuCJAg/o.jpg",
      "review_count": 34,
      "phone": "+16045101888",
      "id": "shiraz-grill-langley",
      "name": "Shiraz Grill",
      "is_closed": false,
      "coordinates": {
        "latitude": 49.103963,
        "longitude": -122.653623
      },
      "rating": 4,
      "distance": 2640.9003858899996,
      "categories": [
        {
          "alias": "persian",
          "title": "Persian/Iranian"
        },
        {
          "alias": "italian",
          "title": "Italian"
        }
      ],
      "url": "https://www.yelp.com/biz/shiraz-grill-langley?adjust_creative=IlwNbnChf6uq0H0u-cNJUw&utm_campaign=yelp_api_v3&utm_medium=api_v3_business_search&utm_source=IlwNbnChf6uq0H0u-cNJUw"
    },
    {
      "price": "$$",
      "location": {
        "zip_code": "V2Y 0L7",
        "address3": "",
        "city": "Langley",
        "address1": "20678 Wiloughby Town Centre Drive",
        "country": "CA",
        "state": "BC",
        "address2": "Suite C120"
      },
      "image_url": "https://s3-media1.fl.yelpcdn.com/bphoto/5lTm-bnXOg-r5GFIgSjhOw/o.jpg",
      "review_count": 35,
      "phone": "+16043712277",
      "id": "noma-japanese-restaurant-langley",
      "name": "Noma Japanese Restaurant",
      "is_closed": false,
      "coordinates": {
        "latitude": 49.1454026,
        "longitude": -122.6479371
      },
      "rating": 4.5,
      "distance": 3388.142214528,
      "categories": [
        {
          "alias": "japanese",
          "title": "Japanese"
        },
        {
          "alias": "sushi",
          "title": "Sushi Bars"
        }
      ],
      "url": "https://www.yelp.com/biz/noma-japanese-restaurant-langley?adjust_creative=IlwNbnChf6uq0H0u-cNJUw&utm_campaign=yelp_api_v3&utm_medium=api_v3_business_search&utm_source=IlwNbnChf6uq0H0u-cNJUw"
    },
    {
      "price": "$$",
      "location": {
        "zip_code": "V3A 4B6",
        "address3": "",
        "city": "Langley",
        "address1": "20563 Douglas Crescent",
        "country": "CA",
        "state": "BC",
        "address2": ""
      },
      "image_url": "https://s3-media3.fl.yelpcdn.com/bphoto/EccJ_GbV5_BjqC2ZDyABEw/o.jpg",
      "review_count": 93,
      "phone": "+17782783088",
      "id": "ban-chok-dee-thai-cuisine-langley-langley",
      "name": "Ban Chok Dee Thai Cuisine - Langley",
      "is_closed": false,
      "coordinates": {
        "latitude": 49.103138,
        "longitude": -122.652728
      },
      "rating": 4,
      "distance": 2649.2712069659997,
      "categories": [
        {
          "alias": "thai",
          "title": "Thai"
        }
      ],
      "url": "https://www.yelp.com/biz/ban-chok-dee-thai-cuisine-langley-langley?adjust_creative=IlwNbnChf6uq0H0u-cNJUw&utm_campaign=yelp_api_v3&utm_medium=api_v3_business_search&utm_source=IlwNbnChf6uq0H0u-cNJUw"
    },
    {
      "price": "$$",
      "location": {
        "zip_code": "V2Y 2N3",
        "address3": "",
        "city": "Langley",
        "address1": "5385 - 216th Street",
        "country": "CA",
        "state": "BC",
        "address2": ""
      },
      "image_url": "https://s3-media2.fl.yelpcdn.com/bphoto/4q9HBDsJUrOISKHRE8F8jQ/o.jpg",
      "review_count": 11,
      "phone": "+16045309228",
      "id": "adrians-langley",
      "name": "Adrian's",
      "is_closed": false,
      "coordinates": {
        "latitude": 49.1005973,
        "longitude": -122.6246235
      },
      "rating": 3.5,
      "distance": 2022.6460317139997,
      "categories": [
        {
          "alias": "greek",
          "title": "Greek"
        }
      ],
      "url": "https://www.yelp.com/biz/adrians-langley?adjust_creative=IlwNbnChf6uq0H0u-cNJUw&utm_campaign=yelp_api_v3&utm_medium=api_v3_business_search&utm_source=IlwNbnChf6uq0H0u-cNJUw"
    },
    {
      "price": "$$",
      "location": {
        "zip_code": "V3A",
        "address3": "",
        "city": "Langley",
        "address1": "20670 Langley Bypass",
        "country": "CA",
        "state": "BC",
        "address2": "Unit C104"
      },
      "image_url": "https://s3-media2.fl.yelpcdn.com/bphoto/veVIkpGxkCMoqR4zOwg2GQ/o.jpg",
      "review_count": 20,
      "phone": "+16045342672",
      "id": "cora-breakfast-and-lunch-langley",
      "name": "Cora Breakfast & Lunch",
      "is_closed": false,
      "coordinates": {
        "latitude": 49.1122632770781,
        "longitude": -122.650332321367
      },
      "rating": 4,
      "distance": 1962.383168876,
      "categories": [
        {
          "alias": "breakfast_brunch",
          "title": "Breakfast & Brunch"
        }
      ],
      "url": "https://www.yelp.com/biz/cora-breakfast-and-lunch-langley?adjust_creative=IlwNbnChf6uq0H0u-cNJUw&utm_campaign=yelp_api_v3&utm_medium=api_v3_business_search&utm_source=IlwNbnChf6uq0H0u-cNJUw"
    },
    {
      "price": "$$",
      "location": {
        "zip_code": "V3A 4G4",
        "address3": "",
        "city": "Langley",
        "address1": "20631 Fraser Highway",
        "country": "CA",
        "state": "BC",
        "address2": ""
      },
      "image_url": "https://s3-media2.fl.yelpcdn.com/bphoto/G0eioyBvWOvKFsYj_1QHBg/o.jpg",
      "review_count": 23,
      "phone": "+16045303511",
      "id": "maru-japanese-restaurant-langley",
      "name": "Maru Japanese Restaurant",
      "is_closed": false,
      "coordinates": {
        "latitude": 49.1037117376537,
        "longitude": -122.65027720905
      },
      "rating": 4,
      "distance": 2473.998309434,
      "categories": [
        {
          "alias": "japanese",
          "title": "Japanese"
        }
      ],
      "url": "https://www.yelp.com/biz/maru-japanese-restaurant-langley?adjust_creative=IlwNbnChf6uq0H0u-cNJUw&utm_campaign=yelp_api_v3&utm_medium=api_v3_business_search&utm_source=IlwNbnChf6uq0H0u-cNJUw"
    },
    {
      "price": "$$",
      "location": {
        "zip_code": "V3A 4G3",
        "address3": "",
        "city": "Langley",
        "address1": "20505 Fraser Highway",
        "country": "CA",
        "state": "BC",
        "address2": ""
      },
      "image_url": "https://s3-media4.fl.yelpcdn.com/bphoto/LbFc922RjdrKxn_-OiZJDQ/o.jpg",
      "review_count": 56,
      "phone": "+16045327708",
      "id": "viva-mexico-restaurant-grill-and-cantina-langley",
      "name": "Viva Mexico Restaurant Grill & Cantina",
      "is_closed": false,
      "coordinates": {
        "latitude": 49.1043399,
        "longitude": -122.6542034
      },
      "rating": 3.5,
      "distance": 2632.04740655,
      "categories": [
        {
          "alias": "mexican",
          "title": "Mexican"
        }
      ],
      "url": "https://www.yelp.com/biz/viva-mexico-restaurant-grill-and-cantina-langley?adjust_creative=IlwNbnChf6uq0H0u-cNJUw&utm_campaign=yelp_api_v3&utm_medium=api_v3_business_search&utm_source=IlwNbnChf6uq0H0u-cNJUw"
    },
    {
      "price": "$",
      "location": {
        "zip_code": "V3A 5E9",
        "address3": "",
        "city": "Langley",
        "address1": "5497 Salt Lane",
        "country": "CA",
        "state": "BC",
        "address2": null
      },
      "image_url": "https://s3-media2.fl.yelpcdn.com/bphoto/SjnXy7iPGHw-mDQYbaK-2g/o.jpg",
      "review_count": 7,
      "phone": "+16044274687",
      "id": "hot-and-toasty-cafe-langley-2",
      "name": "Hot & Toasty Cafe",
      "is_closed": false,
      "coordinates": {
        "latitude": 49.104378,
        "longitude": -122.6531828
      },
      "rating": 4.5,
      "distance": 2547.333841092,
      "categories": [
        {
          "alias": "breakfast_brunch",
          "title": "Breakfast & Brunch"
        },
        {
          "alias": "cafes",
          "title": "Cafes"
        },
        {
          "alias": "creperies",
          "title": "Creperies"
        }
      ],
      "url": "https://www.yelp.com/biz/hot-and-toasty-cafe-langley-2?adjust_creative=IlwNbnChf6uq0H0u-cNJUw&utm_campaign=yelp_api_v3&utm_medium=api_v3_business_search&utm_source=IlwNbnChf6uq0H0u-cNJUw"
    },
    {
      "price": "$$",
      "location": {
        "zip_code": "V3A 4G4",
        "address3": "",
        "city": "Langley",
        "address1": "20598 Fraser Highway",
        "country": "CA",
        "state": "BC",
        "address2": ""
      },
      "image_url": "https://s3-media2.fl.yelpcdn.com/bphoto/WOnrVyT6D1YnKocAs_bo-A/o.jpg",
      "review_count": 11,
      "phone": "+16045108828",
      "id": "oriental-pearl-langley",
      "name": "Oriental Pearl",
      "is_closed": false,
      "coordinates": {
        "latitude": 49.103433251463,
        "longitude": -122.651697310738
      },
      "rating": 3.5,
      "distance": 2571.3933131579997,
      "categories": [
        {
          "alias": "chinese",
          "title": "Chinese"
        }
      ],
      "url": "https://www.yelp.com/biz/oriental-pearl-langley?adjust_creative=IlwNbnChf6uq0H0u-cNJUw&utm_campaign=yelp_api_v3&utm_medium=api_v3_business_search&utm_source=IlwNbnChf6uq0H0u-cNJUw"
    },
    {
      "price": "$$",
      "location": {
        "zip_code": "V3A 4H6",
        "address3": "",
        "city": "Langley",
        "address1": "22372 Fraser Highway",
        "country": "CA",
        "state": "BC",
        "address2": ""
      },
      "image_url": "https://s3-media4.fl.yelpcdn.com/bphoto/4Wqk2Sx3EDecqxOwwdrn-Q/o.jpg",
      "review_count": 15,
      "phone": "+16045323147",
      "id": "nikko-sushi-langley",
      "name": "Nikko Sushi",
      "is_closed": false,
      "coordinates": {
        "latitude": 49.08985,
        "longitude": -122.60475
      },
      "rating": 4,
      "distance": 3507.6522857299997,
      "categories": [
        {
          "alias": "sushi",
          "title": "Sushi Bars"
        }
      ],
      "url": "https://www.yelp.com/biz/nikko-sushi-langley?adjust_creative=IlwNbnChf6uq0H0u-cNJUw&utm_campaign=yelp_api_v3&utm_medium=api_v3_business_search&utm_source=IlwNbnChf6uq0H0u-cNJUw"
    },
    {
      "price": "$$",
      "location": {
        "zip_code": "V3A 4B6",
        "address3": "",
        "city": "Langley",
        "address1": "20511 Douglas Cresent",
        "country": "CA",
        "state": "BC",
        "address2": ""
      },
      "image_url": "https://s3-media2.fl.yelpcdn.com/bphoto/fZcFdsf7VY3cW4QVB-C2kw/o.jpg",
      "review_count": 16,
      "phone": "+16045343922",
      "id": "venetis-restaurant-steak-and-seafood-house-langley",
      "name": "Venetis Restaurant Steak & Seafood House",
      "is_closed": false,
      "coordinates": {
        "latitude": 49.103229,
        "longitude": -122.6538275
      },
      "rating": 4,
      "distance": 2673.16041086,
      "categories": [
        {
          "alias": "seafood",
          "title": "Seafood"
        },
        {
          "alias": "steak",
          "title": "Steakhouses"
        }
      ],
      "url": "https://www.yelp.com/biz/venetis-restaurant-steak-and-seafood-house-langley?adjust_creative=IlwNbnChf6uq0H0u-cNJUw&utm_campaign=yelp_api_v3&utm_medium=api_v3_business_search&utm_source=IlwNbnChf6uq0H0u-cNJUw"
    },
    {
      "price": "$$",
      "location": {
        "zip_code": "V3A 4G4",
        "address3": "",
        "city": "Langley",
        "address1": "20795 Fraser Highway",
        "country": "CA",
        "state": "BC",
        "address2": ""
      },
      "image_url": "https://s3-media1.fl.yelpcdn.com/bphoto/4cXA5UYdJIoPSxxtc7Cb-A/o.jpg",
      "review_count": 17,
      "phone": "+16045343900",
      "id": "poseidon-greek-restaurant-langley",
      "name": "Poseidon Greek Restaurant",
      "is_closed": false,
      "coordinates": {
        "latitude": 49.1024524,
        "longitude": -122.6470333
      },
      "rating": 3.5,
      "distance": 2407.443570932,
      "categories": [
        {
          "alias": "greek",
          "title": "Greek"
        },
        {
          "alias": "mediterranean",
          "title": "Mediterranean"
        }
      ],
      "url": "https://www.yelp.com/biz/poseidon-greek-restaurant-langley?adjust_creative=IlwNbnChf6uq0H0u-cNJUw&utm_campaign=yelp_api_v3&utm_medium=api_v3_business_search&utm_source=IlwNbnChf6uq0H0u-cNJUw"
    },
    {
      "price": "$$",
      "location": {
        "zip_code": "V3A 3M1",
        "address3": "",
        "city": "Langley",
        "address1": "21025 48 Avenue",
        "country": "CA",
        "state": "BC",
        "address2": ""
      },
      "image_url": "https://s3-media1.fl.yelpcdn.com/bphoto/oQ7VNLiLsV3GUV5lKt-r7Q/o.jpg",
      "review_count": 11,
      "phone": "+16045333288",
      "id": "mr-as-patio-restaurant-langley",
      "name": "Mr A's Patio Restaurant",
      "is_closed": false,
      "coordinates": {
        "latitude": 49.0896849,
        "longitude": -122.6418697
      },
      "rating": 3,
      "distance": 3380.200926298,
      "categories": [
        {
          "alias": "newcanadian",
          "title": "Canadian (New)"
        }
      ],
      "url": "https://www.yelp.com/biz/mr-as-patio-restaurant-langley?adjust_creative=IlwNbnChf6uq0H0u-cNJUw&utm_campaign=yelp_api_v3&utm_medium=api_v3_business_search&utm_source=IlwNbnChf6uq0H0u-cNJUw"
    },
    {
      "coordinates": {
        "latitude": 49.11421,
        "longitude": -122.64859
      },
      "location": {
        "zip_code": "V2Y 1N9",
        "address3": "",
        "city": "Langley",
        "address1": "20740 Mufford Cres",
        "country": "CA",
        "state": "BC",
        "address2": ""
      },
      "image_url": "https://s3-media2.fl.yelpcdn.com/bphoto/KhjEZ1Z5sBOkAWSVM0M6kg/o.jpg",
      "review_count": 1,
      "id": "the-best-grill-langley",
      "name": "The Best Grill",
      "is_closed": false,
      "phone": "+16045339600",
      "rating": 4,
      "distance": 1751.28298333,
      "categories": [
        {
          "alias": "diners",
          "title": "Diners"
        },
        {
          "alias": "breakfast_brunch",
          "title": "Breakfast & Brunch"
        },
        {
          "alias": "burgers",
          "title": "Burgers"
        }
      ],
      "url": "https://www.yelp.com/biz/the-best-grill-langley?adjust_creative=IlwNbnChf6uq0H0u-cNJUw&utm_campaign=yelp_api_v3&utm_medium=api_v3_business_search&utm_source=IlwNbnChf6uq0H0u-cNJUw"
    },
    {
      "price": "$",
      "location": {
        "zip_code": "V3A 3Y9",
        "address3": "",
        "city": "Langley",
        "address1": "9 - 20555 56th Avenue",
        "country": "CA",
        "state": "BC",
        "address2": ""
      },
      "image_url": "https://s3-media4.fl.yelpcdn.com/bphoto/M-8j7De1YE2uVgYH9Yharg/o.jpg",
      "review_count": 4,
      "phone": "+16045320776",
      "id": "kalma-family-restaurant-langley",
      "name": "Kalma Family Restaurant",
      "is_closed": false,
      "coordinates": {
        "latitude": 49.104765,
        "longitude": -122.652128
      },
      "rating": 2,
      "distance": 2499.9836786779997,
      "categories": [
        {
          "alias": "diners",
          "title": "Diners"
        },
        {
          "alias": "delis",
          "title": "Delis"
        }
      ],
      "url": "https://www.yelp.com/biz/kalma-family-restaurant-langley?adjust_creative=IlwNbnChf6uq0H0u-cNJUw&utm_campaign=yelp_api_v3&utm_medium=api_v3_business_search&utm_source=IlwNbnChf6uq0H0u-cNJUw"
    },
    {
      "price": "$",
      "location": {
        "zip_code": "V3A 4G7",
        "address3": "",
        "city": "Langley",
        "address1": "20821 Fraser Highway",
        "country": "CA",
        "state": "BC",
        "address2": "Suite 55"
      },
      "image_url": "https://s3-media4.fl.yelpcdn.com/bphoto/1I_XmvaiXOaxlRPMxIeQeg/o.jpg",
      "review_count": 7,
      "phone": "+16045326823",
      "id": "golden-river-express-langley",
      "name": "Golden River Express",
      "is_closed": false,
      "coordinates": {
        "latitude": 49.1021162,
        "longitude": -122.6461148
      },
      "rating": 4,
      "distance": 2308.5324079939996,
      "categories": [
        {
          "alias": "dimsum",
          "title": "Dim Sum"
        }
      ],
      "url": "https://www.yelp.com/biz/golden-river-express-langley?adjust_creative=IlwNbnChf6uq0H0u-cNJUw&utm_campaign=yelp_api_v3&utm_medium=api_v3_business_search&utm_source=IlwNbnChf6uq0H0u-cNJUw"
    },
    {
      "price": "$$",
      "location": {
        "zip_code": "V3A 4G7",
        "address3": "",
        "city": "Langley",
        "address1": "20811 Fraser Highway",
        "country": "CA",
        "state": "BC",
        "address2": "Suite 5"
      },
      "image_url": "https://s3-media2.fl.yelpcdn.com/bphoto/QaAdo_O3YVZuBTonH0MG_w/o.jpg",
      "review_count": 12,
      "phone": "+16044274247",
      "id": "original-joes-langley",
      "name": "Original Joe's",
      "is_closed": false,
      "coordinates": {
        "latitude": 49.1024676,
        "longitude": -122.6466483
      },
      "rating": 2.5,
      "distance": 2389.7966750299997,
      "categories": [
        {
          "alias": "newcanadian",
          "title": "Canadian (New)"
        }
      ],
      "url": "https://www.yelp.com/biz/original-joes-langley?adjust_creative=IlwNbnChf6uq0H0u-cNJUw&utm_campaign=yelp_api_v3&utm_medium=api_v3_business_search&utm_source=IlwNbnChf6uq0H0u-cNJUw"
    },
    {
      "price": "$$",
      "location": {
        "zip_code": "V3A 4C4",
        "address3": "",
        "city": "Langley",
        "address1": "20688 Eastleigh Crescent",
        "country": "CA",
        "state": "BC",
        "address2": ""
      },
      "image_url": "https://s3-media4.fl.yelpcdn.com/bphoto/PGjlQu6YFWaiFE0q29xZKg/o.jpg",
      "review_count": 9,
      "phone": "+16045142266",
      "id": "azumae-sushi-langley",
      "name": "Azumae Sushi",
      "is_closed": false,
      "coordinates": {
        "latitude": 49.1066007,
        "longitude": -122.6509564
      },
      "rating": 4,
      "distance": 2314.958180746,
      "categories": [
        {
          "alias": "japanese",
          "title": "Japanese"
        },
        {
          "alias": "korean",
          "title": "Korean"
        }
      ],
      "url": "https://www.yelp.com/biz/azumae-sushi-langley?adjust_creative=IlwNbnChf6uq0H0u-cNJUw&utm_campaign=yelp_api_v3&utm_medium=api_v3_business_search&utm_source=IlwNbnChf6uq0H0u-cNJUw"
    },
    {
      "coordinates": {
        "latitude": 49.0910161357439,
        "longitude": -122.60740537391
      },
      "location": {
        "zip_code": "V3A 3N4",
        "address3": "",
        "city": "Langley",
        "address1": "22259 48 A avenue",
        "country": "CA",
        "state": "BC",
        "address2": "Suite 206"
      },
      "image_url": "https://s3-media1.fl.yelpcdn.com/bphoto/aKrQ_vyxrR-4YRw5UzzbBw/o.jpg",
      "review_count": 5,
      "id": "hitori-sushi-langley",
      "name": "Hitori Sushi",
      "is_closed": false,
      "phone": "+16044270145",
      "rating": 4,
      "distance": 3350.460162164,
      "categories": [
        {
          "alias": "japanese",
          "title": "Japanese"
        }
      ],
      "url": "https://www.yelp.com/biz/hitori-sushi-langley?adjust_creative=IlwNbnChf6uq0H0u-cNJUw&utm_campaign=yelp_api_v3&utm_medium=api_v3_business_search&utm_source=IlwNbnChf6uq0H0u-cNJUw"
    },
    {
      "price": "$",
      "location": {
        "zip_code": "V3A 3Y9",
        "address3": "",
        "city": "Langley",
        "address1": "6-20555 56th Avenue",
        "country": "CA",
        "state": "BC",
        "address2": ""
      },
      "image_url": "https://s3-media1.fl.yelpcdn.com/bphoto/5Gf49A_tRHGRY2q1uhPkyQ/o.jpg",
      "review_count": 1,
      "phone": "+17782782221",
      "id": "brogans-kalma-family-deli-langley",
      "name": "Brogan's Kalma Family Deli",
      "is_closed": false,
      "coordinates": {
        "latitude": 49.104765,
        "longitude": -122.652128
      },
      "rating": 5,
      "distance": 2499.9836786779997,
      "categories": [
        {
          "alias": "sandwiches",
          "title": "Sandwiches"
        }
      ],
      "url": "https://www.yelp.com/biz/brogans-kalma-family-deli-langley?adjust_creative=IlwNbnChf6uq0H0u-cNJUw&utm_campaign=yelp_api_v3&utm_medium=api_v3_business_search&utm_source=IlwNbnChf6uq0H0u-cNJUw"
    }
  ]
